{"8351":{"results":[{"address_components":[{"long_name":"2026","short_name":"2026","types":["street_number"]},{"long_name":"Chaparral Drive","short_name":"Chaparral Dr","types":["route"]},{"long_name":"Spring Branch West","short_name":"Spring Branch West","types":["neighborhood","political"]},{"long_name":"Houston","short_name":"Houston","types":["locality","political"]},{"long_name":"Harris County","short_name":"Harris County","types":["administrative_area_level_2","political"]},{"long_name":"Texas","short_name":"TX","types":["administrative_area_level_1","political"]},{"long_name":"United States","short_name":"US","types":["country","political"]},{"long_name":"77043","short_name":"77043","types":["postal_code"]},{"long_name":"2402","short_name":"2402","types":["postal_code_suffix"]}],"formatted_address":"2026 Chaparral Dr, Houston, TX 77043, USA","geometry":{"location":{"lat":29.808919,"lng":-95.55742699999999},"location_type":"ROOFTOP","viewport":{"northeast":{"lat":29.8102679802915,"lng":-95.55607801970848},"southwest":{"lat":29.8075700197085,"lng":-95.5587759802915}}},"place_id":"ChIJkz4wz9XEQIYRX4KXJ_1TZF0","types":["street_address"]}],"status":"OK","query":"2026 Chaparral Dr. Houston TX 77043"},"8352":{"results":[{"address_components":[{"long_name":"77031","short_name":"77031","types":["postal_code"]},{"long_name":"Houston","short_name":"Houston","types":["locality","political"]},{"long_name":"Texas","short_name":"TX","types":["administrative_area_level_1","political"]},{"long_name":"United States","short_name":"US","types":["country","political"]}],"formatted_address":"Houston, TX 77031, USA","geometry":{"bounds":{"northeast":{"lat":29.67336,"lng":-95.528024},"southwest":{"lat":29.6396451,"lng":-95.5711231}},"location":{"lat":29.6558257,"lng":-95.54597869999999},"location_type":"APPROXIMATE","viewport":{"northeast":{"lat":29.67336,"lng":-95.528024},"southwest":{"lat":29.6396451,"lng":-95.5711231}}},"place_id":"ChIJO_WrjBHoQIYRghtBbjCYFYE","types":["postal_code"]}],"status":"OK","query":"  Houston TX 77031"},"8644":{"results":[{"address_components":[{"long_name":"8550","short_name":"8550","types":["street_number"]},{"long_name":"Memorial Drive","short_name":"Memorial Dr","types":["route"]},{"long_name":"The Villages","short_name":"The Villages","types":["neighborhood","political"]},{"long_name":"Houston","short_name":"Houston","types":["locality","political"]},{"long_name":"Harris County","short_name":"Harris County","types":["administrative_area_level_2","political"]},{"long_name":"Texas","short_name":"TX","types":["administrative_area_level_1","political"]},{"long_name":"United States","short_name":"US","types":["country","political"]},{"long_name":"77024","short_name":"77024","types":["postal_code"]},{"long_name":"7725","short_name":"7725","types":["postal_code_suffix"]}],"formatted_address":"8550 Memorial Dr, Houston, TX 77024, USA","geometry":{"location":{"lat":29.7769338,"lng":-95.4524972},"location_type":"ROOFTOP","viewport":{"northeast":{"lat":29.7782827802915,"lng":-95.4511482197085},"southwest":{"lat":29.7755848197085,"lng":-95.4538461802915}}},"place_id":"ChIJG3mcy87GQIYRp0_0Fv7m5RI","types":["street_address"]}],"status":"OK","query":"8550 Memorial Drive Houston TX 77024"}}